[
  {
    "labelPriamry": "Central Railway Station",
    "labelSecondary": "Asemanaukio 2, Helsinki",
    "layer": "station",
    "coordinates": {
      "lat": 60.170384,
      "lon": 24.939846
    }
  },
  {
    "labelPriamry": "Helsinki station (Helsinki railway station)",
    "labelSecondary": "Kaivokatu 1, Helsinki",
    "layer": "station",
    "coordinates": {
      "lat": 60.170747,
      "lon": 24.941445
    }
  },
  {
    "labelPriamry": "Ravintola Station",
    "labelSecondary": "Pukinmäki, Helsinki",
    "layer": "venue",
    "coordinates": {
      "lat": 60.243028,
      "lon": 24.994486
    }
  },
  {
    "labelPriamry": "Railway Square",
    "labelSecondary": "Kluuvi, Helsinki",
    "layer": "station",
    "coordinates": {
      "lat": 60.171366,
      "lon": 24.943045
    }
  },
  {
    "labelPriamry": "Railway service road",
    "labelSecondary": "Tuusula",
    "layer": "street",
    "coordinates": {
      "lat": 60.510766,
      "lon": 25.136097
    }
  },
  {
    "labelPriamry": "Asematie (Stationsvägen)",
    "labelSecondary": "Kauniainen",
    "layer": "street",
    "coordinates": {
      "lat": 60.212587,
      "lon": 24.72676
    }
  },
  {
    "labelPriamry": "Asematie 1 (Stationsvägen 1)",
    "labelSecondary": "Kauniainen",
    "layer": "address",
    "coordinates": {
      "lat": 60.212643,
      "lon": 24.727446
    }
  },
  {
    "labelPriamry": "Asematie 2 (Stationsvägen 2)",
    "labelSecondary": "Kauniainen",
    "layer": "address",
    "coordinates": {
      "lat": 60.212214,
      "lon": 24.727044
    }
  },
  {
    "labelPriamry": "Asematie 6 (Stationsvägen 6)",
    "labelSecondary": "Kauniainen",
    "layer": "address",
    "coordinates": {
      "lat": 60.212476,
      "lon": 24.724432
    }
  },
  {
    "labelPriamry": "Asematie 2b (Stationsvägen 2b)",
    "labelSecondary": "Kauniainen",
    "layer": "address",
    "coordinates": {
      "lat": 60.211876,
      "lon": 24.726195
    }
  },
  {
    "labelPriamry": "Ilmala station",
    "labelSecondary": "Mellersta Böle, Helsingfors",
    "layer": "station",
    "coordinates": {
      "lat": 60.207595,
      "lon": 24.921465
    }
  },
  {
    "labelPriamry": "Aviapolis station",
    "labelSecondary": "Veromies, Vanda",
    "layer": "station",
    "coordinates": {
      "lat": 60.304314,
      "lon": 24.956379
    }
  },
  {
    "labelPriamry": "Räckhals station",
    "labelSecondary": "Rekola, Vanda",
    "layer": "station",
    "coordinates": {
      "lat": 60.332723,
      "lon": 25.068449
    }
  },
  {
    "labelPriamry": "Lejle station",
    "labelSecondary": "Koivukylä, Vanda",
    "layer": "station",
    "coordinates": {
      "lat": 60.322598,
      "lon": 25.039069
    }
  },
  {
    "labelPriamry": "Stationsvägen Ka1776",
    "labelSecondary": "Grankulla",
    "stopSign": "Ka1776",
    "layer": "stop",
    "coordinates": {
      "lat": 60.214424,
      "lon": 24.713101
    }
  },
  {
    "labelPriamry": "Ilmala station H2118",
    "labelSecondary": "Mellersta Böle, Helsingfors",
    "stopSign": "H2118",
    "layer": "stop",
    "coordinates": {
      "lat": 60.20796,
      "lon": 24.92078
    }
  },
  {
    "labelPriamry": "Ilmala station H2119",
    "labelSecondary": "Mellersta Böle, Helsingfors",
    "stopSign": "H2119",
    "layer": "stop",
    "coordinates": {
      "lat": 60.208023,
      "lon": 24.921068
    }
  },
  {
    "labelPriamry": "Ilmala station H2187",
    "labelSecondary": "Mellersta Böle, Helsingfors",
    "stopSign": "H2187",
    "layer": "stop",
    "coordinates": {
      "lat": 60.207833,
      "lon": 24.920638
    }
  },
  {
    "labelPriamry": "Ilmala station H2188",
    "labelSecondary": "Västra Böle, Helsingfors",
    "stopSign": "H2188",
    "layer": "stop",
    "coordinates": {
      "lat": 60.2085,
      "lon": 24.91885
    }
  },
  {
    "labelPriamry": "Savio station",
    "labelSecondary": "Kervo",
    "layer": "station",
    "coordinates": {
      "lat": 60.380389,
      "lon": 25.097695
    }
  }
]
