[
  {
    "id": "node:418089207",
    "labelPriamry": "Central Railway Station",
    "labelSecondary": "Asemanaukio 2, Helsinki",
    "layer": "station",
    "coordinates": {
      "lat": 60.170384,
      "lon": 24.939846
    }
  },
  {
    "id": "way:122595198",
    "labelPriamry": "Helsinki station (Helsinki railway station)",
    "labelSecondary": "Kaivokatu 1, Helsinki",
    "layer": "station",
    "coordinates": {
      "lat": 60.170747,
      "lon": 24.941445
    }
  },
  {
    "id": "node:102437578",
    "labelPriamry": "Ravintola Station",
    "labelSecondary": "Pukinmäki, Helsinki",
    "layer": "venue",
    "coordinates": {
      "lat": 60.243028,
      "lon": 24.994486
    }
  },
  {
    "id": "node:1380974090",
    "labelPriamry": "Railway Square",
    "labelSecondary": "Kluuvi, Helsinki",
    "layer": "station",
    "coordinates": {
      "lat": 60.171366,
      "lon": 24.943045
    }
  },
  {
    "id": "way:825219881",
    "labelPriamry": "Railway service road",
    "labelSecondary": "Tuusula",
    "layer": "street",
    "coordinates": {
      "lat": 60.510766,
      "lon": 25.136097
    }
  },
  {
    "id": "way:4341639",
    "labelPriamry": "Asematie (Stationsvägen)",
    "labelSecondary": "Kauniainen",
    "layer": "street",
    "coordinates": {
      "lat": 60.212587,
      "lon": 24.72676
    }
  },
  {
    "id": "way:27402795",
    "labelPriamry": "Asematie 1 (Stationsvägen 1)",
    "labelSecondary": "Kauniainen",
    "layer": "address",
    "coordinates": {
      "lat": 60.212643,
      "lon": 24.727446
    }
  },
  {
    "id": "way:27424902",
    "labelPriamry": "Asematie 2 (Stationsvägen 2)",
    "labelSecondary": "Kauniainen",
    "layer": "address",
    "coordinates": {
      "lat": 60.212308,
      "lon": 24.726709
    }
  },
  {
    "id": "way:27425060",
    "labelPriamry": "Asematie 6 (Stationsvägen 6)",
    "labelSecondary": "Kauniainen",
    "layer": "address",
    "coordinates": {
      "lat": 60.212476,
      "lon": 24.724432
    }
  },
  {
    "id": "101638284A-1",
    "labelPriamry": "Asematie 2b (Stationsvägen 2b)",
    "labelSecondary": "Kauniainen",
    "layer": "address",
    "coordinates": {
      "lat": 60.211876,
      "lon": 24.726195
    }
  },
  {
    "id": "GTFS:HSL:1000203",
    "labelPriamry": "Ilmala station",
    "labelSecondary": "Mellersta Böle, Helsingfors",
    "layer": "station",
    "coordinates": {
      "lat": 60.207595,
      "lon": 24.921465
    }
  },
  {
    "id": "GTFS:HSL:4000212",
    "labelPriamry": "Aviapolis station",
    "labelSecondary": "Veromies, Vanda",
    "layer": "station",
    "coordinates": {
      "lat": 60.304314,
      "lon": 24.956379
    }
  },
  {
    "id": "GTFS:HSL:4000208",
    "labelPriamry": "Räckhals station",
    "labelSecondary": "Rekola, Vanda",
    "layer": "station",
    "coordinates": {
      "lat": 60.332723,
      "lon": 25.068449
    }
  },
  {
    "id": "GTFS:HSL:4000214",
    "labelPriamry": "Lejle station",
    "labelSecondary": "Koivukylä, Vanda",
    "layer": "station",
    "coordinates": {
      "lat": 60.322598,
      "lon": 25.039069
    }
  },
  {
    "id": "GTFS:HSL:3170276#Ka1776",
    "labelPriamry": "Stationsvägen Ka1776",
    "labelSecondary": "Grankulla",
    "stopSign": "Ka1776",
    "layer": "stop",
    "coordinates": {
      "lat": 60.214424,
      "lon": 24.713101
    }
  },
  {
    "id": "GTFS:HSL:9000201",
    "labelPriamry": "Savio station",
    "labelSecondary": "Kervo",
    "layer": "station",
    "coordinates": {
      "lat": 60.380389,
      "lon": 25.097695
    }
  },
  {
    "id": "GTFS:HSL:1000212",
    "labelPriamry": "Malm station",
    "labelSecondary": "Nedre Malm, Helsingfors",
    "layer": "station",
    "coordinates": {
      "lat": 60.25095,
      "lon": 25.01076
    }
  },
  {
    "id": "GTFS:HSL:1000214",
    "labelPriamry": "Parkstad station",
    "labelSecondary": "Parkstad, Helsingfors",
    "layer": "station",
    "coordinates": {
      "lat": 60.276033,
      "lon": 25.036777
    }
  },
  {
    "id": "GTFS:HSL:4720205#V7205",
    "labelPriamry": "Räckhals station V7205",
    "labelSecondary": "Asola, Vanda",
    "stopSign": "V7205",
    "layer": "stop",
    "coordinates": {
      "lat": 60.33399,
      "lon": 25.06449
    }
  },
  {
    "id": "GTFS:HSL:4720206#V7206",
    "labelPriamry": "Räckhals station V7206",
    "labelSecondary": "Asola, Vanda",
    "stopSign": "V7206",
    "layer": "stop",
    "coordinates": {
      "lat": 60.3343,
      "lon": 25.06437
    }
  }
]
